~Version Information
VERS.                  2.0 : CWLS LOG ASCII STANDARD - VERSION 2.0
WRAP.                  NO  : ONE LINE PER DEPTH STEP
~Well Information
#MNEM.UNIT             DATA                           :DESCRIPTION
#----.----             ----                           :-----------
STRT .M                1500.0000                      :START DEPTH
STOP .M                1520.0000                      :STOP DEPTH
STEP .M                0.5000                         :DEPTH STEP
NULL .                 -999.25                        :NULL VALUE
WELL .                 GAIA-APPRAISAL-01              :WELL NAME
FLD  .                 Niger Delta Offshore           :FIELD
LOC  .                 Latitude: 5.4851, Longitude: 6.8214 :LOCATION
~Curve Information
#MNEM.UNIT             API CODE                       :CURVE DESCRIPTION
#----.----             --------                       :-----------------
DEPT.M                                                :1  DEPTH
GR  .API                                              :2  GAMMA RAY
NPHI.V/V                                              :3  NEUTRON POROSITY
RHOB.G/C3                                             :4  BULK DENSITY
~Parameter Information
~Other
~ASCII Log Data
 1500.0   45.2   0.24   2.34
 1500.5   48.1   0.25   2.32
 1501.0   50.3   0.26   2.31
 1501.5   42.0   0.23   2.35
 1502.0   -999.25 -999.25 -999.25
 1502.5   38.4   0.22   2.38
 1503.0   40.1   0.21   2.39
 1503.5   44.2   0.23   2.36
 1504.0   46.8   0.24   2.33
 1504.5   52.1   0.27   2.30
 1505.0   55.0   0.28   2.29
 1505.5   51.2   0.26   2.31
 1506.0   48.9   0.25   2.32
 1506.5   43.5   0.22   2.34
 1507.0   39.8   0.21   2.37
 1507.5   41.2   0.22   2.36
 1508.0   44.6   0.23   2.35
 1508.5   47.0   0.24   2.33
 1509.0   50.1   0.25   2.32
 1509.5   53.4   0.27   2.30
 1510.0   56.2   0.28   2.28
 1510.5   52.8   0.26   2.30
 1511.0   49.5   0.25   2.32
 1511.5   45.1   0.23   2.34
 1512.0   41.0   0.21   2.36
 1512.5   42.3   0.22   2.35
 1513.0   44.9   0.23   2.34
 1513.5   47.8   0.24   2.33
 1514.0   51.2   0.26   2.31
 1514.5   54.5   0.27   2.29
 1515.0   57.0   0.29   2.27
 1515.5   53.1   0.27   2.29
 1516.0   49.8   0.25   2.31
 1516.5   46.0   0.23   2.33
 1517.0   41.8   0.21   2.36
 1517.5   43.0   0.22   2.35
 1518.0   45.5   0.23   2.34
 1518.5   48.4   0.25   2.32
 1519.0   51.9   0.26   2.30
 1519.5   55.1   0.28   2.28
 1520.0   58.0   0.29   2.26
